,Latitude,Longitude,City,Temperature,Humidity,Cloudiness,Wind speed
637,34.03541428898983,33.661887847949856,dromolaxia,59.0,100.0,0.0,3.36
2066,-3.8586800273599806,147.78891417432868,lorengau,79.78,100.0,80.0,13.24
2371,-17.865832028684835,56.517799522486655,cap malheureux,78.8,88.0,75.0,10.29
1315,-19.28723985467016,-55.04826438492951,rio verde de mato grosso,75.32,83.0,8.0,4.18
1097,-7.444074926310748,153.00370624157404,panguna,80.59,89.0,36.0,3.62
675,30.529945378394885,-107.97537195545513,nuevo casas grandes,44.68,33.0,0.0,3.74
558,-20.932096832019297,151.63598210600105,yeppoon,86.0,55.0,40.0,18.34
931,-17.177437872524962,21.23162605456207,shakawe,62.9,89.0,20.0,2.73
1233,-51.82536388596441,125.58317263159068,esperance,78.8,88.0,20.0,5.82
1632,54.88737569940935,29.77605877762153,senno,17.6,72.0,88.0,4.47
1785,10.676448756097699,96.1256483643237,ranong,91.4,52.0,20.0,6.93
992,33.03073458478174,-61.08797596500021,saint george,49.09,73.0,0.0,6.53
987,-5.012994232573234,-64.74750626292493,canutama,75.14,94.0,36.0,2.39
983,-47.00510071141875,165.19835477460606,tuatapere,56.29,100.0,48.0,11.01
1636,52.365130586397015,-70.28576491799208,chute-aux-outardes,30.2,74.0,90.0,18.34
1072,-21.54046542389696,115.40567112339767,karratha,97.01,28.0,0.0,4.97
854,6.476526513349242,-52.7597183492157,iracoubo,78.43,79.0,92.0,7.76
2214,35.38341641687795,151.1821561864375,nemuro,24.8,41.0,20.0,6.93
2427,36.96423509280497,-109.08106794432851,cortez,24.8,21.0,1.0,6.93
2052,78.44647653094225,29.247138357375718,mehamn,9.98,88.0,64.0,1.95
803,52.6223376395979,19.11721090536338,wloclawek,32.89,95.0,92.0,11.23
809,17.283755221516273,103.11878223710028,nong han,87.8,55.0,32.0,4.7
437,42.21838430793116,-157.68545970105822,kodiak,33.8,74.0,90.0,19.46
1700,8.725837110916629,176.80549787869148,butaritari,82.7,100.0,76.0,11.23
324,25.52122755940185,80.17253226698335,mataundh,74.6,33.0,0.0,8.1
1790,61.95021945316188,44.552053620436425,verkhnyaya toyma,7.82,75.0,32.0,9.78
2420,57.499024564442806,39.29619425659993,borisoglebskiy,3.01,84.0,76.0,9.44
497,19.058975648344585,74.7309339860575,ahmadnagar,77.03,41.0,48.0,2.28
1762,14.827905393502647,-77.32729094280164,bull savanna,64.07,79.0,0.0,4.52
2173,38.87238539317221,-84.91588157477396,florence,64.4,34.0,1.0,8.05
1081,59.17327073957563,173.7567301982874,anadyr,17.6,85.0,90.0,6.71
1744,57.613638614165296,-130.30521220328512,ketchikan,35.6,80.0,90.0,3.36
206,81.41769933530517,-61.05999915545087,narsaq,23.0,38.0,76.0,14.99
2078,51.12349673726766,116.23268413648509,kalanguy,5.53,77.0,0.0,4.41
2298,40.882408355706445,50.70665270348448,artyom,23.0,20.0,64.0,2.24
1111,-13.154120367606978,141.36566055397964,daru,69.43,95.0,20.0,2.95
1336,-31.186707999812043,-50.12168933411445,palmares do sul,71.6,78.0,75.0,3.36
2155,11.83886445780999,-3.796008035120707,hounde,71.09,56.0,20.0,4.18
1052,24.54814624401247,-7.864783580380617,taoudenni,59.3,58.0,0.0,5.86
1314,-11.922214548463117,-38.53446919666533,alagoinhas,78.74,81.0,0.0,12.46
649,13.69445207260857,35.494145136911925,doka,69.2,51.0,8.0,10.0
2493,-20.45443008205382,-168.453346892546,alofi,82.4,78.0,75.0,8.05
414,-9.590885372257887,-78.8374137792777,casma,66.23,96.0,0.0,6.53
83,-9.962350027060452,159.81052637045354,honiara,87.8,74.0,40.0,9.17
644,70.36193920927434,115.36678298199587,saskylakh,-19.23,56.0,24.0,1.72
627,51.044231905197705,-11.762881292537259,dingle,82.52,74.0,48.0,14.47
419,61.05286725126928,27.160162820380975,valkeala,8.6,65.0,0.0,9.17
2106,38.209370944566615,-107.22809594265202,montrose,82.4,30.0,0.0,10.29
1439,-3.330953776248677,88.6034804658787,meulaboh,81.26,100.0,24.0,3.4
510,26.831471266902113,70.03330161082891,jaisalmer,64.34,37.0,0.0,2.73
2252,54.54105465033078,136.00554012300864,chumikan,5.44,50.0,0.0,14.25
2064,-14.537893176486804,-40.84536617803556,anage,72.62,91.0,36.0,3.51
502,64.43634533125669,39.53200285492173,severodvinsk,-2.21,91.0,0.0,6.71
332,49.08959284768099,82.56774656140084,oskemen,37.4,86.0,90.0,6.71
1197,57.83559394552566,-119.14398254849404,fairview,41.0,65.0,90.0,6.93
1920,-3.402417386092168,-35.4862377760077,touros,80.18,90.0,92.0,8.43
1096,84.26252364087784,106.68870422643022,khatanga,-28.72,47.0,8.0,5.3
1327,-17.8941371790293,-30.731394250397898,belmonte,31.4,90.0,24.0,2.95
760,15.635767637868,-116.89826005402143,cabo san lucas,68.0,72.0,5.0,5.3
2496,69.53329639699922,-73.55946708961139,clyde river,-4.01,83.0,90.0,3.36
385,64.73422233331232,-138.97514557513628,mayo,1.4,84.0,40.0,2.73
1283,-52.72251194618379,174.58679776808145,dunedin,61.37,81.0,64.0,6.2
1088,-46.72354522990866,17.271554989186683,hermanus,61.46,97.0,80.0,3.85
77,-1.0878243331174389,-49.28087294071378,muana,77.89,100.0,68.0,7.43
151,15.023413988992985,57.32543487511512,salalah,68.0,37.0,0.0,2.24
865,71.52283243993384,69.0765749115815,yar-sale,20.29,90.0,92.0,20.85
2050,-5.892881787322452,44.117124520284705,micheweni,80.23,100.0,64.0,12.91
1036,8.059487969058921,16.002029173414485,bol,66.77,25.0,0.0,6.2
2130,46.01211476041567,2.150120641919358,gueret,37.4,100.0,92.0,12.75
235,32.308523122796146,-115.81949591921517,progreso,66.2,48.0,0.0,10.29
62,0.8198955985048855,-88.2726992595116,san cristobal,53.6,81.0,75.0,14.99
1159,33.1688577451215,-14.437523918631342,camacha,64.4,93.0,75.0,10.29
713,40.48172066078553,126.43053026983256,huanren,30.01,59.0,76.0,3.85
252,68.68389665373292,-56.312876885454656,kangaatsiaq,10.61,100.0,64.0,4.63
1100,-23.384876904853385,-26.90740359206589,caravelas,81.31,100.0,76.0,16.04
1788,46.6533189193124,-132.77929452423552,port hardy,41.0,86.0,90.0,4.7
592,-9.867065749613403,30.158676894493027,luwingu,56.38,90.0,12.0,2.28
1260,27.201559518526707,74.65861992270575,makrana,65.56,44.0,0.0,2.84
1435,-12.109795522597807,-33.29731897900655,maceio,77.0,88.0,0.0,11.41
1731,53.84140327322484,-22.909105851258914,vestmannaeyjar,27.58,100.0,0.0,13.24
986,57.50031796531135,-54.14350426880182,saint anthony,21.2,85.0,1.0,3.36
1158,-1.1006780240777942,139.58652552734725,vanimo,83.11,100.0,12.0,18.72
810,59.81053855526943,-114.52172764242964,hay river,10.4,85.0,75.0,5.82
117,43.229137207879546,129.4847325954437,wangqing,19.25,62.0,48.0,5.75
1796,46.86834213906016,-47.32918701390042,torbay,30.2,92.0,90.0,28.86
643,28.78032541678857,86.36730686729885,banepa,60.8,55.0,20.0,2.24
1976,18.896522710346403,-171.95119163881046,kapaa,75.2,64.0,75.0,17.22
1851,-18.258600072091824,-62.00761192505546,pailon,71.6,83.0,75.0,9.17
2180,-5.00689035056493,164.00223061477408,auki,60.34,46.0,0.0,2.73
1511,-9.380519900550723,115.40109763090499,denpasar,79.96,90.0,48.0,2.17
2447,3.0609654321713293,-44.0939169805433,carutapera,77.57,96.0,48.0,4.74
1604,-10.549986245818118,167.32673466881567,lata,44.0,56.0,0.0,2.51
1212,-24.242606974334592,146.86596396695995,emerald,85.67,55.0,80.0,16.26
1020,14.341612273264559,41.35039805642285,edd,63.53,75.0,0.0,1.16
1387,61.17618942712437,160.3766112197959,evensk,21.68,100.0,76.0,17.83
793,-28.542014714660425,61.25192767392886,souillac,42.8,93.0,92.0,12.75
2198,-31.93521377065943,27.594199883019144,lady frere,57.19,99.0,76.0,2.39
391,4.09399962812283,105.58624743721089,cukai,84.2,79.0,75.0,4.7
1598,-28.480090285610657,-73.73280732865598,coquimbo,62.6,77.0,90.0,2.24
325,24.700141901851495,-10.01535704834427,tiznit,60.38,99.0,92.0,6.98
1961,43.55168542384283,-113.30456704497745,rupert,33.8,59.0,1.0,5.82
2482,75.08808188361829,22.192901323656457,hammerfest,14.0,51.0,0.0,1.12
42,66.06520155159032,57.77171736522183,usinsk,3.28,81.0,68.0,11.79
2443,-79.84666015160344,-136.3943145449354,rikitea,79.33,100.0,44.0,14.47
1470,23.12101436532572,-84.62907156515958,mantua,41.0,93.0,75.0,4.7
1824,24.688316951942113,118.6375079156611,quanzhou,64.4,63.0,90.0,6.71
1337,42.26211827886323,-70.59452129193926,scituate,37.4,74.0,75.0,3.18
1928,16.607205582897265,69.61031490490336,guhagar,79.19,94.0,88.0,10.11
226,64.01400936060185,-55.56185644711124,maniitsoq,3.14,84.0,8.0,7.99
2105,-5.814065069840609,-81.03743167668452,sechura,74.78,83.0,24.0,5.53
2277,-37.56190130638457,-66.37745091128727,general roca,66.2,63.0,0.0,3.36
1397,67.42707023143757,50.628933570272636,naryan-mar,4.36,79.0,68.0,25.99
1952,62.77726782930205,-71.5457073494772,iqaluit,-5.81,83.0,75.0,4.7
1152,-6.984138722559095,40.924001944203184,sokoni,62.23,93.0,64.0,2.39
573,1.966063657306563,128.15118327572372,ternate,89.6,55.0,40.0,9.17
1361,50.15600783949253,77.37398174494206,aksu,19.4,73.0,20.0,26.84
655,47.97480577809131,102.60877293379741,bulgan,14.75,63.0,0.0,4.07
2067,60.63124688881254,68.74452248545043,gornopravdinsk,25.73,93.0,92.0,10.0
1835,24.74322360330831,106.63259402692364,bose,42.8,93.0,75.0,2.24
2455,35.12345317342066,-96.68039896526415,shawnee,44.6,35.0,1.0,19.46
690,30.957938689119615,90.71798233666766,lasa,59.0,93.0,75.0,4.7
2057,62.22936801205506,-102.88123871986113,la ronge,14.0,92.0,90.0,4.63
2325,49.61935977463162,97.77534683451938,kungurtug,5.66,73.0,8.0,3.51
568,-22.52498704729244,63.888288925753386,bambous virieux,78.8,88.0,75.0,10.29
845,22.764049178645152,-59.54249446104889,codrington,67.85,94.0,100.0,9.44
109,-65.60511713200903,132.50896549538675,new norfolk,68.0,52.0,20.0,10.29
2025,-24.040595197308036,-47.94461565473051,pilar do sul,67.13,95.0,88.0,3.96
405,57.6115786316233,-132.6034543553722,juneau,28.4,92.0,90.0,9.17
1090,51.26710618590471,-105.68948416555271,davidson,44.6,100.0,90.0,3.4
1414,-38.91619602868184,-70.48466100566392,villarrica,51.38,87.0,0.0,2.17
1034,32.70149160777255,-102.94749933005359,hobbs,46.4,12.0,1.0,8.05
1459,4.6868422782322625,104.01416090530347,paka,33.8,100.0,90.0,5.82
879,28.615317105742733,-74.25340584905572,marsh harbour,70.37,100.0,0.0,10.56
268,-78.83078312023814,97.01717252090674,albany,37.4,69.0,90.0,12.75
825,-4.080522952307135,156.41995957428975,kieta,84.23,95.0,12.0,2.84
430,4.917706306541916,73.39718937873451,eydhafushi,82.48,100.0,8.0,6.31
535,60.11070369341104,40.92394582606917,syamzha,-7.12,60.0,24.0,3.18
1345,-20.125169213239303,-73.14236718782482,iquique,68.0,68.0,0.0,9.17
1539,-4.28037249184095,-105.15323669309782,puerto ayora,79.1,99.0,24.0,6.42
2284,16.778573474321888,87.76262714947842,puri,84.05,81.0,12.0,3.06
193,49.13922052173254,-124.14109822195908,nanaimo,39.2,93.0,20.0,4.7
80,-20.20279700463304,-152.9180728354968,moerai,80.14,100.0,92.0,8.77
1803,13.595787503294488,-83.34820668590585,puerto cabezas,76.13,99.0,0.0,8.77
1304,68.60950825023622,118.4565828073907,zhigansk,-14.5,44.0,0.0,5.86
1547,40.95641860607651,128.17163081356568,songjianghe,24.11,79.0,36.0,3.62
16,43.83608121351733,-53.509790667269,marystown,34.91,90.0,92.0,33.93
2305,28.536679268306457,-22.175175506424353,los llanos de aridane,64.4,77.0,56.0,3.36
755,25.765315015760322,-104.91859080373906,santa maria del oro,49.18,70.0,0.0,1.39
1154,15.203684699364885,-75.11640595603784,morant bay,77.0,65.0,20.0,4.7
753,-62.748403823096986,26.42028359090685,kruisfontein,67.13,93.0,92.0,2.62
1203,8.703265147262286,84.95017605631728,kalmunai,75.95,96.0,48.0,4.07
1015,60.09781858559208,162.94985107058727,ossora,23.12,90.0,80.0,14.14
2341,-18.294164873706194,-88.70656245290917,hualmay,65.51,78.0,8.0,2.84
1911,65.6695885184194,-13.740431916892504,hofn,33.65,100.0,12.0,21.41
1280,35.90437709481728,139.40370001840677,hidaka,44.6,45.0,90.0,3.36
881,57.681898082078334,157.14449162074902,tigil,18.8,82.0,24.0,15.93
388,35.393003051623225,-105.08223172201622,las vegas,60.8,16.0,40.0,1.95
2234,74.31043688613406,1.2597963151907265,roald,21.2,79.0,24.0,5.82
1553,-20.881378679963973,-53.21876482262995,ribas do rio pardo,75.28,82.0,8.0,6.64
1566,-8.525481913606356,131.71693081196435,tual,81.17,100.0,92.0,18.84
2317,32.34655187193057,134.2617900275925,muroto,57.2,41.0,75.0,5.82
2351,46.7688424264455,-80.92785439187593,capreol,23.0,92.0,90.0,13.87
2164,22.30309799850197,-46.44365178486203,bathsheba,78.8,88.0,20.0,16.11
2304,51.70277839511951,127.88275003835258,shimanovsk,12.46,42.0,0.0,3.62
343,37.27578464342544,114.61751461518253,tangshan,37.48,74.0,68.0,4.63
1104,-1.9837348932343843,95.64379595890966,padang,77.89,100.0,92.0,6.2
1712,57.77385060145545,-111.5747828821177,athabasca,4.94,73.0,0.0,7.65
2331,30.049224599139507,26.766477819599288,marsa matruh,58.54,45.0,0.0,11.34
393,6.623784891949214,63.94442550321196,kulhudhuffushi,81.8,100.0,64.0,3.96
1674,54.58311820092072,-66.01203074310651,sept-iles,23.0,67.0,90.0,4.7
1442,38.29838151370356,7.94988832335315,carbonia,48.2,87.0,20.0,4.7
950,5.542897766697465,-53.72276747334854,mana,39.2,93.0,0.0,2.24
1975,62.15457491104377,-120.29831903018695,fort nelson,10.4,78.0,20.0,2.24
136,76.59796042008813,175.19298693603145,komsomolskiy,7.19,82.0,80.0,20.29
1118,-39.34922229570765,-58.53890830813263,necochea,52.06,92.0,0.0,7.87
1474,39.71386243307714,-114.05419191073872,west wendover,35.6,59.0,1.0,3.96
1064,55.57623800906083,-63.13073321466129,havre-saint-pierre,32.0,81.0,90.0,10.29
123,64.15128551526055,64.78860137971975,igrim,14.84,80.0,80.0,8.99
302,67.85784708832853,-61.95059959599523,pangnirtung,-2.8,74.0,32.0,6.08
1534,48.08173162361402,147.03436262901454,vostok,10.61,51.0,0.0,2.84
118,-18.481288357729028,65.64893097332774,quatre cocos,78.8,88.0,75.0,10.29
2100,21.687588367241517,-114.79300051900563,constitucion,68.0,20.0,20.0,8.05
1777,12.404688940839279,-103.13287710395036,san jeronimo,40.18,98.0,8.0,1.72
887,-12.548526654301781,-40.50436473256943,itaberaba,78.74,77.0,56.0,9.1
333,57.53609538024838,161.28263871435917,klyuchi,31.76,88.0,24.0,20.18
571,37.495179705403814,-7.853644218634287,castro verde,41.0,100.0,0.0,5.82
2016,58.59683076854657,-147.54770092256402,palmer,82.4,45.0,0.0,14.99
2446,25.718100915868206,-94.98434111375472,brownsville,62.6,88.0,90.0,13.87
273,-16.640757575317792,107.00347825661117,srandakan,83.78,85.0,24.0,5.97
727,63.44242801603417,2.2071169076073147,raudeberg,28.4,58.0,64.0,8.05
630,12.14365544679056,-70.59901314140492,punto fijo,78.74,73.0,0.0,16.49
1870,15.919473958860607,129.8780982290985,alugan,81.89,93.0,88.0,13.58
1521,41.2134654264417,-73.19050344316227,trumbull,37.4,69.0,90.0,9.17
105,42.845888699928764,101.0985873823268,hovd,23.0,78.0,0.0,4.7
2474,84.18709368009098,19.58680868397383,longyearbyen,6.8,60.0,0.0,14.99
940,-51.62636472941753,-97.68055303452549,castro,55.88,95.0,0.0,4.41
1059,29.419027667996104,66.88532518186881,mastung,40.63,77.0,24.0,2.62
1183,-26.81245766918134,160.8641169062593,poya,78.16,100.0,92.0,26.78
1473,62.04567394316402,-166.19539133574406,nome,55.4,62.0,1.0,4.7
1699,-10.433873520643516,-73.28002665957052,mazamari,64.97,95.0,8.0,1.95
1077,5.41501573840209,-71.43609570857379,trinidad,56.78,69.0,0.0,5.75
2422,-14.161500774693877,-19.640110347198714,georgetown,78.16,87.0,100.0,8.55
2430,23.6693152371773,122.96532386993863,ishigaki,73.4,60.0,20.0,8.05
2263,72.78468273889143,8.452298211673423,sorland,23.0,57.0,75.0,10.29
1711,-46.3748374333838,-67.57025330918476,comodoro rivadavia,75.2,50.0,0.0,32.21
1504,-50.06138551932878,-69.11666257558412,rio gallegos,62.6,72.0,0.0,10.29
1481,31.658764591920274,151.91828541445994,hasaki,42.8,56.0,75.0,13.87
87,50.27519744149191,121.27524877423053,genhe,4.04,57.0,0.0,4.63
29,60.41316534208295,20.976120507198345,uusikaupunki,12.2,78.0,0.0,8.05
2385,-9.142688852919605,7.60137436693708,soyo,71.41,97.0,8.0,2.95
141,68.51182294412618,35.009236388658906,lovozero,-11.08,54.0,8.0,3.18
2396,85.25457367994935,31.126378814840905,berlevag,13.94,100.0,64.0,3.18
1295,50.39943130732854,-78.7817498820115,matagami,61.1,76.0,0.0,3.4
660,25.420544034925115,95.06322015872786,phek,64.61,64.0,0.0,1.95
1590,67.07448428269532,-8.967480768453328,vestmanna,26.6,73.0,56.0,4.7
926,-26.277755846872296,63.23567121091057,mahebourg,78.8,88.0,75.0,10.29
618,8.085945023581232,62.90598345296297,kavaratti,84.23,99.0,0.0,6.64
1478,-36.59765597309169,172.4176879376821,dargaville,70.06,80.0,44.0,14.14
941,-70.43120351117406,46.69080270067556,port alfred,71.14,94.0,24.0,7.54
1245,-0.2813701640739623,12.631467416375983,lastoursville,70.01,99.0,80.0,2.28
397,-33.277918638330085,140.9630413305643,broken hill,86.08,31.0,0.0,17.49
344,-15.966613695858555,163.71954151648026,luganville,85.36,95.0,76.0,10.0
1854,-45.47598991904745,131.2343791549053,port lincoln,76.09,69.0,0.0,14.7
2154,54.91945073262235,69.68496522286287,petropavl,8.6,78.0,0.0,20.13
140,1.774376396913425,82.2411606119735,hambantota,79.96,100.0,0.0,8.43
1821,21.574286072592045,5.980738778408892,arlit,59.03,40.0,0.0,2.73
1693,12.000605754125274,-60.81952643213093,grenville,30.2,79.0,75.0,12.75
730,13.196986143126637,0.14047189794081305,bogande,71.63,30.0,20.0,7.76
2265,-27.666006370957355,150.62190754998994,dalby,73.4,78.0,75.0,20.8
2176,-33.70781460594879,91.42692870874339,geraldton,10.4,78.0,90.0,9.17
2061,56.661161392568914,146.71188197821493,okhotsk,17.36,88.0,64.0,4.18
1607,30.271981682059305,99.64984091386845,yaan,75.5,89.0,0.0,10.67
1958,16.51361131969773,33.64571854887237,wad rawah,64.39,33.0,8.0,9.66
192,68.78399541350282,20.652974633623728,skibotn,21.2,41.0,0.0,8.05
999,-18.180707506301715,29.02719941849179,kadoma,56.83,92.0,0.0,7.31
2428,38.48198420168572,28.73082062276879,kula,33.8,94.0,90.0,5.82
1012,0.41009187809235925,50.77264257087643,hobyo,76.4,87.0,0.0,16.6
2271,0.657302256889011,154.8763691475495,namatanai,85.22,95.0,12.0,14.81
1616,39.61072048665136,105.51912538023629,shitanjing,33.88,38.0,0.0,5.97
1186,42.212511255965495,68.472643178808,arys,37.4,93.0,90.0,4.47
664,19.214546461706306,141.87809253264163,airai,82.39,71.0,24.0,1.72
1869,62.00985452772562,-137.55855566383596,haines junction,2.11,78.0,68.0,2.06
2086,44.27547911900385,-72.50311296394332,montpelier,33.8,68.0,1.0,10.29
1901,-30.19648449167194,-60.350786037860246,reconquista,65.24,57.0,0.0,8.55
1582,28.519933195163986,78.72719514050414,narauli,66.68,61.0,0.0,11.45
1028,12.787832042915369,130.56623917124745,sulangan,82.16,100.0,56.0,18.28
1895,59.3286100719923,35.246856183072765,chagoda,3.28,83.0,80.0,7.09
1989,1.3408128014875587,22.773147456086264,basoko,72.26,91.0,20.0,3.06
1117,1.6548960537562607,-63.9871619992079,santa isabel do rio negro,78.29,90.0,88.0,2.84
2281,63.88652279288374,21.861800534551378,mustasaari,8.6,71.0,0.0,8.05
2141,60.03015095304826,-3.6245335976984734,stromness,30.2,85.0,20.0,8.05
1450,-12.067771564553425,107.89902686842646,kawalu,77.39,83.0,8.0,2.06
1940,59.34171501223628,-56.90486066073785,nuuk,14.0,92.0,75.0,5.82
1612,-25.416801296246177,53.21101527321488,saint-pierre,42.8,87.0,80.0,13.87
1899,13.675127065215776,-65.97118043883644,kralendijk,78.8,88.0,88.0,17.22
1765,23.5208190122853,75.53604436825063,gogapur,70.78,30.0,0.0,7.2
2323,4.201677843858533,115.11354881798621,limbang,87.8,70.0,75.0,9.17
2254,15.597713919729031,-90.15957569716379,san pedro carcha,59.66,90.0,0.0,0.83
897,24.989604796700775,-103.09716141008525,venustiano carranza,66.2,42.0,40.0,12.75
168,8.446776101713795,30.776470761912066,ler,23.0,78.0,0.0,4.7
658,-7.31808026630263,104.96902770980813,labuhan,75.59,96.0,92.0,2.39
1733,2.2302310451339196,-117.02942306930404,san patricio,75.5,68.0,0.0,5.86
1758,33.77718789261307,71.79262797051987,cherat,59.0,47.0,20.0,4.7
1356,-7.689171853257136,114.19671295467919,panji,42.29,100.0,92.0,10.56
2136,55.713159266348356,129.54427773493182,zeya,6.74,45.0,0.0,3.29
735,43.122512188247214,-117.98019705409101,ontario,69.8,17.0,40.0,3.36
748,67.4097639631155,76.17501099422782,novyy urengoy,19.79,87.0,92.0,21.41
2045,17.20240668193189,4.678721858283694,abalak,69.65,33.0,0.0,8.66
882,-36.69548532686399,22.99058686129402,knysna,66.2,93.0,75.0,4.7
2211,15.8795623675408,128.28653859763477,gigmoto,81.26,97.0,64.0,11.45
898,59.446168471617284,123.30738945785049,aldan,-4.69,51.0,36.0,6.53
1514,61.310344350692986,78.71662516137098,strezhevoy,24.8,100.0,75.0,17.9
97,31.99968128060911,62.2791951155215,farah,48.05,86.0,0.0,3.29
623,54.26067194766202,148.25650308612677,ekhabi,3.64,92.0,0.0,19.51
2134,33.03170152909,177.2061766222253,nikolskoye,12.2,56.0,0.0,8.95
2210,36.7861750239783,-142.71324597213237,fortuna,50.0,66.0,20.0,5.82
654,8.64173742448375,98.12667647656406,phangnga,89.6,62.0,20.0,8.05
480,4.971586778198642,-22.750799416295678,bubaque,74.29,100.0,0.0,11.68
1412,35.998735931787195,138.79673670787798,tomioka,37.21,50.0,36.0,2.62
351,21.149186234105315,23.27971355104279,faya,55.4,76.0,0.0,2.62
2217,-0.014049490749769689,43.727999091990085,jamame,75.86,93.0,80.0,6.64
2194,36.26685404785209,-123.66700692090583,half moon bay,60.8,38.0,75.0,8.05
2189,67.75508626166695,-132.33556916923413,inuvik,12.2,66.0,75.0,5.82
2031,35.59615374305517,43.284455093088894,bayji,52.37,60.0,76.0,3.18
1505,-24.70056540026677,119.22437842063653,port hedland,102.2,27.0,0.0,11.41
1375,59.35678557286545,4.3288843452736785,holme,37.4,91.0,20.0,3.36
1995,30.802549900599047,126.86765370820922,fukue,46.4,100.0,75.0,5.82
420,45.30785795674328,38.7961959571916,novovelichkovskaya,39.2,86.0,75.0,11.18
1135,40.59486004656219,-132.2167943047103,eureka,50.0,61.0,1.0,4.7
602,9.409679968868303,76.67578607119248,chengannur,77.89,65.0,12.0,2.73
166,22.8859503191767,89.0247233004219,satkhira,75.2,57.0,0.0,4.7
634,45.07212963493481,-70.93705211321655,lac-megantic,30.2,73.0,90.0,6.93
126,64.90030740567016,8.308439147446279,sistranda,23.0,73.0,20.0,10.29
176,55.61255057737495,70.77080763601467,sladkovo,11.51,81.0,24.0,22.64
504,-15.10326803938149,18.173014580629257,menongue,61.01,94.0,24.0,2.28
1781,26.969982640809476,85.7797297812607,malangwa,74.6,89.0,76.0,2.73
1871,-1.1833666105428193,124.07878726506686,luwuk,77.75,100.0,92.0,2.73
283,-67.61475227369803,-57.143492698861806,ushuaia,48.2,100.0,75.0,10.0
194,64.44304946469646,122.78309136758389,kysyl-syr,-10.81,54.0,32.0,3.96
2285,62.93061235161437,139.22968912361563,solnechnyy,12.05,50.0,8.0,7.76
2107,36.56991773038514,-122.05474408303111,pacific grove,57.2,43.0,1.0,2.39
1939,27.19065589150094,73.5941702141551,nagaur,65.38,47.0,0.0,2.84
534,29.602319758766356,-67.88580331961396,hamilton,60.8,59.0,75.0,20.8
1982,40.85735397923813,53.331930016772844,balkanabat,36.76,65.0,32.0,5.08
588,14.095336759867521,-8.95129627760582,kolokani,73.21,23.0,0.0,10.22
1898,-20.288387741554388,31.627910389389484,chiredzi,65.74,88.0,0.0,3.74
1818,-26.945633555383857,18.78223405420033,keetmanshoop,72.76,61.0,8.0,8.66
1017,5.7569413140446954,-60.77362472216093,bartica,74.69,97.0,92.0,3.62
327,42.72914638799085,-91.16245666781019,dubuque,32.0,86.0,90.0,13.87
461,72.65034126723648,-92.92294867306886,thompson,15.8,66.0,40.0,5.82
1638,-44.79130834665897,137.54393018680918,portland,51.8,53.0,20.0,3.06
349,20.296919032676115,-9.162857846067965,atar,61.69,54.0,0.0,5.97
1861,-13.839608192861945,52.07611561704542,sambava,80.27,100.0,48.0,6.98
1841,28.79735117941739,-29.868992441866226,ribeira grande,61.82,100.0,92.0,28.34
1456,-85.62037311187893,-118.16645281220133,punta arenas,48.2,93.0,20.0,9.17
961,13.812960040960888,107.13669967877524,lumphat,84.19,68.0,0.0,4.41
74,-33.3013681243287,38.27748126765644,richards bay,71.41,96.0,24.0,5.41
676,35.31839787075728,74.1716908687635,gilgit,12.14,87.0,0.0,0.16
85,31.012451882897366,-153.2872256258033,kailua,78.8,64.0,75.0,10.29
701,23.756335304075975,-41.317123909621614,ponta do sol,70.51,80.0,12.0,3.4
1491,-9.988175201289096,-78.94048471982752,huarmey,63.71,78.0,0.0,2.73
1754,54.4080978617487,82.7552316515538,yarkovo,35.6,93.0,75.0,15.66
2354,30.761038832502294,133.34952664563423,nichinan,53.6,87.0,75.0,25.28
894,82.33588334119986,144.47754219534664,chokurdakh,-17.11,51.0,32.0,5.97
823,51.00178587338462,16.908984423147444,wroclaw,33.8,80.0,90.0,6.93
1507,-9.808272515395359,133.7561158547303,maningrida,92.78,58.0,0.0,11.79
527,81.21073066711097,170.5376367114295,pevek,-12.52,80.0,0.0,1.83
294,34.35393424057004,132.37635280542952,hatsukaichi,46.4,52.0,75.0,10.29
463,-39.46525701589214,40.31345831453794,margate,68.0,52.0,20.0,10.29
812,62.156791142498776,150.7330711318798,sinegorye,-11.17,66.0,44.0,2.73
1231,59.5110423076475,64.6936678195521,uray,13.18,75.0,88.0,15.48
587,-6.846926167840181,-43.11832285389343,floriano,70.82,98.0,80.0,10.67
2400,25.704963164438126,-82.85687275834916,naples,71.6,73.0,1.0,5.82
2224,22.47461336915711,-154.512714663086,kahului,73.4,64.0,75.0,16.11
680,12.508630491318158,-7.958832404404234,bamako,77.0,25.0,0.0,2.24
1365,64.9701340036849,14.821432408460623,storforshei,8.86,78.0,56.0,4.74
120,-14.9450541584863,148.90246341174344,cairns,80.6,83.0,75.0,10.29
2467,56.7087878004082,89.43182191755051,tyukhtet,20.24,76.0,24.0,10.67
2233,-44.03968203553073,179.18040504654311,waipawa,62.36,100.0,92.0,5.19
2266,-34.20498984708492,21.259376741425626,swellendam,68.0,88.0,92.0,3.36
1567,11.109605905067014,48.6777145369723,bosaso,75.14,100.0,0.0,5.75
1308,-26.349538280150867,87.12651446708026,carnarvon,59.84,39.0,36.0,2.73
8,-14.636200299637721,16.122094544018466,caconda,51.47,96.0,0.0,2.84
404,3.7864871044235855,-49.39078013011269,amapa,73.4,88.0,20.0,4.7
1307,46.14041498478784,-82.82386581933294,blind river,24.8,100.0,90.0,11.41
2442,8.763142610840575,-23.73420624397923,praia,75.2,73.0,40.0,2.24
1584,-35.465701532277436,37.39741569034203,port shepstone,71.23,98.0,88.0,9.1
1957,44.84236910565542,95.3661729584694,hami,43.24,50.0,0.0,9.66
1718,15.504580636035541,157.5089188575247,kavieng,82.88,100.0,80.0,12.46
2209,46.4517112106893,-0.06652737054290014,parthenay,39.2,100.0,56.0,9.17
900,13.544513556236112,-69.63922611495582,oranjestad,80.6,83.0,40.0,12.75
2330,-20.156027766930066,128.83739569600147,kununurra,95.0,39.0,0.0,12.75
860,13.011074898705829,96.00229451675261,dawei,86.53,49.0,0.0,2.39
1046,20.173427657511567,1.7697666885732133,tessalit,56.87,51.0,0.0,2.73
2004,12.346966162668252,-6.28223437243301,koutiala,75.05,25.0,8.0,10.22
903,1.1762310138335863,0.31306959961736425,cape coast,74.38,95.0,0.0,4.52
2437,63.20623338255126,153.76301832875225,seymchan,-8.56,62.0,68.0,12.8
37,-5.759933741758758,21.41968339638231,luebo,71.23,99.0,92.0,2.17
545,20.938537797044717,54.62511355032257,nizwa,46.79,69.0,0.0,3.29
570,66.17342920196955,40.98854311299331,arkhangelsk,-2.21,91.0,0.0,6.71
519,62.175707711845064,-172.15689078000545,provideniya,24.8,68.0,75.0,11.18
58,48.123544837989044,-2.08258039847982,dinan,37.4,100.0,90.0,6.93
20,6.620188316391449,58.12783271081963,bandarbeyla,76.63,100.0,0.0,15.26
1624,43.70719856859424,-126.05378896382982,north bend,50.0,87.0,1.0,3.36
2258,60.363193300052984,16.76861812144125,sandviken,22.13,91.0,56.0,3.85
1168,14.194494338897158,-0.1337108747722482,dori,74.11,23.0,0.0,12.35
1050,54.05206086595328,23.42954869982819,lazdijai,27.35,97.0,92.0,10.67
2324,-30.742919524718886,15.012988725440493,oranjemund,63.71,96.0,92.0,16.93
353,-2.296132457954201,16.612093550193975,bolobo,69.2,100.0,0.0,2.62
1497,43.32912966838251,146.7310791520535,yuzhno-kurilsk,26.68,100.0,44.0,11.68
2111,65.99818263673322,136.73999701290387,batagay,-14.55,65.0,32.0,4.41
91,43.952261187106984,-10.431842250796905,muros,39.2,93.0,75.0,1.12
2022,-8.605414095904038,128.3404717057486,atambua,81.89,100.0,76.0,8.21
1512,10.400328955470854,74.89363239919436,ponnani,80.6,78.0,20.0,3.36
2274,-28.91025765062976,-35.121468741356125,arraial do cabo,73.4,100.0,20.0,2.24
474,-41.383079455157976,6.984360363806388,cape town,62.6,93.0,20.0,14.99
2017,7.5673062411962775,-16.521274600570564,goderich,31.18,94.0,76.0,5.97
1873,31.459708731609382,-85.02535138118888,dothan,57.2,81.0,1.0,5.82
195,-5.3365246609967585,107.97629630154512,pamanukan,81.31,100.0,24.0,1.39
960,80.42004465381376,35.986335146998215,vardo,37.4,86.0,90.0,3.36
737,-11.83036983542047,-84.027469794921,chimbote,66.46,91.0,8.0,3.18
1845,-26.16784232903892,37.438047867218216,inhambane,77.44,97.0,88.0,5.53
754,47.02771359797248,53.07894080874476,dossor,-1.95,48.0,8.0,3.06
2167,30.96232823670381,-24.4040137779175,vila franca do campo,62.6,93.0,40.0,21.92
423,14.12370019132598,-31.960819611072623,porto novo,71.6,94.0,75.0,2.24
1778,31.064567982602284,110.22125385484895,enshi,42.65,100.0,80.0,3.85
2469,-41.0281831077229,-92.77993117257647,ancud,60.11,89.0,8.0,4.74
904,38.858012638941744,140.0586551906555,yuza,35.6,47.0,20.0,8.05
1202,50.091191965058954,-137.87543300974542,sitka,41.26,30.0,0.0,17.27
1061,-29.518393836999365,-46.27924846225059,laguna,64.7,41.0,0.0,3.18
71,-77.46401306306682,152.43612592400416,bluff,88.01,47.0,68.0,17.72
1829,46.650943701490746,4.248308408394905,montceau-les-mines,42.8,96.0,90.0,5.82
1137,2.303766237016177,41.32047563973336,wajir,78.8,74.0,0.0,9.17
1149,-82.19405301791382,-167.8009517429519,vaini,74.38,65.0,0.0,3.62
390,-36.25188586787491,-61.61566334652832,nueve de julio,68.44,49.0,64.0,3.29
687,-15.260214380564818,-52.75384535834692,barra do garcas,70.64,99.0,12.0,3.51
481,-9.55316219396181,32.287642455610154,nakonde,55.25,91.0,80.0,2.62
2311,42.27151812102758,53.18238966561654,zhanaozen,25.64,83.0,0.0,11.23
2029,-27.32297047276223,-67.98468373936139,diego de almagro,56.29,90.0,0.0,1.39
177,47.402817930802996,67.51135332220628,zhezkazgan,12.2,85.0,40.0,20.13
1560,-4.443918435733536,103.00468112508764,lahat,79.46,97.0,48.0,4.07
399,67.04183836732281,178.23952528264329,leningradskiy,1.03,100.0,64.0,4.07
1243,38.79362457327187,58.73472736403926,buzmeyin,48.2,93.0,90.0,16.11
1827,69.70704430791028,130.02203206926367,batagay-alyta,-13.38,76.0,44.0,3.85
1683,16.43603388521082,-65.5189426340115,maunabo,73.4,69.0,20.0,3.36
1974,24.186775710275427,19.431564112798867,awjilah,70.51,24.0,0.0,12.68
1369,-8.878993562047683,51.56314378081257,ambilobe,69.79,100.0,80.0,5.41
2425,37.51162536626593,124.46476752585198,yatou,78.8,94.0,75.0,1.12
700,35.385165930775884,-79.779578272038,asheboro,42.8,100.0,90.0,4.7
2295,22.943202410582657,-120.84586734745321,guerrero negro,60.38,68.0,0.0,8.43
175,32.0479560877058,72.3317268947732,mangla,43.51,48.0,0.0,2.39
2122,-66.34003670039007,82.04206818083804,busselton,72.53,92.0,8.0,7.09
2110,60.14155068375453,-31.315341291301024,tasiilaq,14.0,51.0,32.0,2.24
1786,22.020923437531593,44.1831884472694,riyadh,64.4,34.0,0.0,3.36
1471,57.01936902788876,107.24859368756819,ulkan,2.15,56.0,32.0,4.97
1063,75.26231599057391,-145.64084080198975,college,26.6,79.0,90.0,5.82
2059,26.75608809692612,-125.3553631993565,lompoc,59.0,28.0,1.0,3.18
1261,39.57424737957146,166.23367488312846,severo-kurilsk,21.46,100.0,36.0,19.84
196,-73.89597107011033,145.43918068809427,hobart,68.0,52.0,20.0,10.29
408,36.06493017620015,125.72663387619895,seoul,50.0,42.0,0.0,11.41
544,-16.781032359879674,44.864302994879864,mahajanga,77.0,94.0,40.0,4.7
1427,-34.391683768091866,13.529109643835682,saldanha,35.54,92.0,64.0,6.2
572,68.27433540410269,167.81731660315762,bilibino,0.26,71.0,68.0,3.18
455,-2.371940901998485,-121.02691680671496,atuona,79.73,100.0,48.0,13.24
1035,-26.73330002099582,-57.871069452668124,pilar,68.0,52.0,0.0,3.36
679,42.61232990892833,130.54888865420088,khasan,24.38,100.0,80.0,10.0
1214,45.928367588635155,-24.26465497799481,praia da vitoria,60.8,87.0,20.0,24.43
1083,4.423427883849158,126.0312073956294,sarangani,83.74,98.0,8.0,1.61
2377,19.05695638834696,64.3982544980382,dwarka,60.8,72.0,8.0,6.93
871,-43.83925049003632,-69.74378115017916,coihaique,60.8,82.0,75.0,6.93
25,63.54857477708944,12.540280346664048,snasa,19.39,81.0,76.0,4.97
139,50.83827828276304,133.8427449972495,chegdomyn,4.81,49.0,0.0,6.98
2272,-26.166280511253582,-53.34090525804041,ampere,60.8,62.0,20.0,5.41
2343,41.15650391811434,24.509203528624198,zigos,53.6,87.0,40.0,4.7
1269,-25.303106920878292,169.69247310110046,vao,19.7,89.0,64.0,7.99
1235,8.171473770941631,91.14112414505985,port blair,82.7,100.0,0.0,6.98
1705,-34.93382147324528,159.47796373315902,port macquarie,75.2,57.0,40.0,16.11
95,47.79114724368179,99.24109550454256,moron,69.02,97.0,88.0,3.06
2262,-7.364716765468543,42.879566307762246,kilindoni,80.99,100.0,92.0,14.25
595,-7.494410621092385,-49.245755735801936,conceicao do araguaia,76.13,94.0,0.0,2.95
1686,67.155489651425,149.1170348277018,zyryanka,-10.09,53.0,48.0,9.89
666,-44.49269008651019,-38.167148906146735,rio grande,67.76,97.0,0.0,13.47
1988,-4.861149448547593,-36.482021424518365,macau,75.5,91.0,20.0,4.97
2497,69.59700184464941,87.77221260770455,kayerkan,-12.34,59.0,68.0,3.18
1572,64.79668999218896,28.40716412082199,kajaani,-11.21,76.0,0.0,5.97
100,27.102120812958546,14.487775484734897,sabha,57.28,37.0,0.0,4.85
707,55.05587183778823,92.74199893260231,krasnokamensk,9.13,60.0,0.0,4.63
567,-4.179687904225759,-2.4648829312137366,axim,80.9,100.0,0.0,10.0
893,53.87053830475563,-99.22987948787552,the pas,17.6,78.0,90.0,1.61
479,26.38306108656063,-108.82818813065118,el fuerte,68.21,42.0,0.0,3.18
1716,39.37888334942943,30.923727713701368,emirdag,44.68,67.0,80.0,6.42
1929,26.014773466646872,-146.70514665705673,hilo,69.8,62.0,75.0,6.93
2196,22.312324609657708,-67.34730865636654,samana,73.66,97.0,8.0,2.06
73,68.06479639683624,16.783688616055088,ballangen,17.6,48.0,64.0,13.87
1109,-45.614345372450465,-45.18631757578032,rocha,56.87,74.0,0.0,7.76
2489,-50.99071244621865,65.56791431217542,saint-philippe,30.2,80.0,1.0,10.29
157,41.280485123809996,22.267866906947177,demir kapija,40.94,89.0,0.0,4.41
1386,4.6323636170116345,-105.39119940629786,acapulco,77.0,88.0,5.0,2.24
1529,74.52456646993195,-138.53499371550544,aklavik,12.2,66.0,75.0,5.82
2186,-29.7107252078836,136.2021004625641,port augusta,84.2,35.0,0.0,9.17
384,48.29895716958259,-66.01797631051176,new richmond,28.4,79.0,90.0,8.05
1644,59.38467949500716,-59.481315921653746,saint-augustin,48.2,93.0,92.0,6.93
1807,45.8089646815659,-81.51014314017593,little current,24.8,100.0,90.0,11.41
908,41.59822498900101,12.903732574385828,cori,53.6,87.0,75.0,6.93
1979,64.32709286038587,135.75877182540574,khandyga,-14.23,64.0,68.0,3.62
316,12.736414605646061,46.28406939007519,aden,77.21,96.0,0.0,11.45
2212,11.753316881188184,-62.41383030869656,gouyave,80.6,83.0,75.0,19.46
831,38.95587964110857,27.319459066395893,bergama,58.18,78.0,92.0,14.25
1627,-11.782587154554989,-42.66241706126664,oliveira dos brejinhos,71.54,92.0,44.0,2.95
901,69.83413228376361,76.69891123313135,tazovskiy,16.28,87.0,92.0,22.53
323,7.875012153949896,-68.86528700403885,guanare,76.31,81.0,100.0,10.67
1662,-30.93412949056271,-58.21952102589789,concordia,65.42,57.0,0.0,14.81
1463,50.58952941087557,-93.46511209402566,dryden,8.6,78.0,1.0,8.05
110,6.470497127625222,96.11846120632453,sabang,80.41,90.0,92.0,10.45
280,80.57254372808933,131.0520595975135,tiksi,-16.66,74.0,36.0,4.18
1816,-8.333305354111545,-45.04010029800173,bom jesus,80.6,83.0,40.0,5.82
1163,-16.777293093043966,-142.1767270153783,tautira,84.2,70.0,75.0,9.17
180,-1.3870275061387218,164.02974382020585,buala,79.78,100.0,44.0,2.84
401,-12.584730598424429,-30.937971483121345,maragogi,75.77,100.0,56.0,7.43
620,59.31341161744487,93.02436429080461,severo-yeniseyskiy,7.1,60.0,0.0,4.29
2408,58.84568278748205,-54.126902652000226,paamiut,22.58,100.0,0.0,13.69
1646,10.496220242591207,-71.10190676796412,cabimas,76.4,100.0,64.0,2.62
1739,22.863616388522118,-157.96389706943438,wahiawa,78.8,68.0,1.0,12.75
1538,30.34549877137499,56.043048963946376,rafsanjan,33.2,68.0,0.0,2.95
652,88.93808239224117,-54.800209812446624,upernavik,5.39,100.0,76.0,7.2
1981,55.17691567865762,89.8130719920369,uzhur,1.48,67.0,8.0,2.73
2434,34.96299173024447,2.8173037835454977,birin,52.51,97.0,20.0,8.21
258,9.220436586162094,-105.08960015745359,ixtapa,68.0,100.0,5.0,1.05
1146,19.22837808122877,63.9196856365937,sur,69.92,100.0,0.0,4.41
10,-34.610335607207425,-80.90888368693074,lebu,46.61,91.0,64.0,3.18
2102,16.74476120796912,-81.38359312789986,bodden town,77.0,73.0,20.0,6.93
647,49.79180088286142,33.21069247590239,khorol,25.91,98.0,88.0,13.24
262,27.988498836125032,-104.55190647275198,camargo,62.09,13.0,0.0,9.44
282,78.11130951138358,-136.45946573340032,tuktoyaktuk,12.2,77.0,75.0,8.05
508,38.00902250364268,66.4687890621955,qarqin,53.86,80.0,80.0,10.78
2387,-8.10150970739329,115.32386832131829,singaraja,79.96,90.0,48.0,2.17
1657,29.210777739951453,-79.23205422310885,merritt island,71.6,52.0,75.0,11.41
631,-87.3792368584856,33.15759825054025,port elizabeth,41.0,86.0,90.0,9.17
2416,20.25446511642835,136.96495787362448,gushikawa,75.2,64.0,40.0,17.22
1080,-37.05586055919663,-68.132435213175,neuquen,66.2,63.0,0.0,3.36
